,City,Lat,Lng,Max Temp,Humidity,Cloudiness,Wind Speed,Country,Date
0,Hwange,-18.3693,26.5019,60.57,37,1,2.66,ZW,1627235475
1,Tamuín,21.9833,-98.75,90.07,56,6,4.59,MX,1627235475
2,Dayong,25.0209,118.2898,87.48,84,85,4.27,CN,1627235475
3,Ushuaia,-54.8,-68.3,35.26,93,90,26.46,AR,1627235306
4,Saint-Louis,16.3333,-15.0,101.84,32,56,11.14,SN,1627235475
5,Souillac,-20.5167,57.5167,71.98,60,40,11.5,MU,1627235243
6,Lincoln,40.8,-96.667,82.02,72,1,1.99,US,1627235466
7,Hobart,-42.8794,147.3294,42.66,73,67,1.99,AU,1627235293
8,Pitimbu,-7.4706,-34.8086,77.59,69,8,13.87,BR,1627235476
9,Devgarh,25.5333,73.9,76.19,90,88,14.07,IN,1627235476
10,Rikitea,-23.1203,-134.9692,70.34,65,97,3.91,PF,1627235476
11,Hilo,19.7297,-155.09,77.61,93,90,5.75,US,1627235231
12,Price,39.5994,-110.8107,86.72,38,1,0.0,US,1627235477
13,Qaanaaq,77.484,-69.3632,40.23,70,88,5.48,GL,1627235477
14,São Filipe,14.8961,-24.4956,74.25,73,56,7.7,CV,1627235477
15,São João da Barra,-21.6403,-41.0511,77.09,60,0,14.61,BR,1627235223
16,Bahía de Caráquez,-0.6,-80.4167,77.18,78,100,7.02,EC,1627235478
17,Muisne,0.6,-80.0333,82.51,77,95,11.65,EC,1627235478
18,Nouadhibou,20.931,-17.0347,76.98,73,0,17.27,MR,1627235478
19,Thiene,45.7088,11.4796,83.32,65,68,4.43,IT,1627235478
20,Mount Gambier,-37.8333,140.7667,51.71,93,90,16.11,AU,1627235479
21,Kapaa,22.0752,-159.319,79.12,84,75,1.99,US,1627235479
22,Sitka,57.0531,-135.33,55.29,82,90,4.61,US,1627235479
23,Hithadhoo,-0.6,73.0833,80.87,74,85,3.24,MV,1627235479
24,Punta Arenas,-53.15,-70.9167,41.11,70,20,16.11,CL,1627235480
25,İskilip,40.7353,34.4739,67.89,61,51,8.63,TR,1627235480
26,East London,-33.0153,27.9116,59.94,72,0,6.91,ZA,1627235307
27,Bārān,25.1,76.5167,84.76,76,82,6.49,IN,1627235480
28,Jamestown,42.097,-79.2353,83.3,63,75,4.0,US,1627235277
29,Chui,-33.6971,-53.4616,68.05,79,61,10.36,UY,1627235481
30,Hermanus,-34.4187,19.2345,53.8,55,100,7.9,ZA,1627235302
31,Lufilufi,-13.8745,-171.5986,74.98,72,41,13.67,WS,1627235481
32,Albany,42.6001,-73.9662,82.27,74,94,6.62,US,1627235481
33,Dyersburg,36.0345,-89.3856,93.88,70,1,6.91,US,1627235482
34,Butaritari,3.0707,172.7902,81.95,76,18,10.31,KI,1627235482
35,Marabá,-5.3686,-49.1178,96.98,34,20,5.75,BR,1627235482
36,Kismayo,-0.3582,42.5454,75.58,76,24,20.56,SO,1627235482
37,Mana,5.6592,-53.7767,77.43,84,100,2.28,GF,1627235361
38,Barrow,71.2906,-156.7887,42.82,91,90,11.5,US,1627235483
39,Maykor,59.0059,55.88,53.67,66,96,5.48,RU,1627235483
40,Port Alfred,-33.5906,26.891,61.03,49,27,11.43,ZA,1627235483
41,Saint Paul Harbor,57.79,-152.4072,50.36,91,70,1.28,US,1627235215
42,Kodino,63.7198,39.6447,52.81,86,43,1.07,RU,1627235483
43,Hasaki,35.7333,140.8333,75.6,79,0,14.23,JP,1627235376
44,San Cristobal,7.7669,-72.225,75.38,49,100,5.28,VE,1627235484
45,Ilulissat,69.2167,-51.1,44.96,56,76,7.36,GL,1627235484
46,Dalby,-27.1833,151.2667,32.7,74,91,6.06,AU,1627235484
47,Avarua,-21.2078,-159.775,71.65,94,75,4.61,CK,1627235484
48,Margate,51.3813,1.3862,69.69,79,85,1.99,GB,1627235485
49,Bracknell,51.4136,-0.7505,69.78,81,75,1.99,GB,1627235249
50,Port Elizabeth,-33.918,25.5701,55.69,82,0,1.14,ZA,1627235485
51,Mataura,-46.1927,168.8643,47.48,88,100,4.59,NZ,1627235485
52,Saskylakh,71.9167,114.0833,52.66,82,40,7.96,RU,1627235485
53,Busselton,-33.65,115.3333,58.08,66,44,19.44,AU,1627235486
54,Ust-Kuyga,70.0167,135.6,51.06,75,32,3.15,RU,1627235486
55,Khatanga,71.9667,102.5,50.34,83,54,7.25,RU,1627235350
56,Ørsta,62.2029,6.1272,75.56,53,0,4.61,NO,1627235486
57,Samaná,19.2056,-69.3369,84.42,79,75,6.91,DO,1627235487
58,Provideniya,64.3833,-173.3,46.71,99,100,6.67,RU,1627235487
59,Minudasht,37.2289,55.3747,87.37,55,90,11.5,IR,1627235487
60,Tiksi,71.6872,128.8694,48.0,81,83,7.23,RU,1627235487
61,San Quintín,30.4833,-115.95,68.58,82,100,6.4,MX,1627235194
62,Port Lincoln,-34.7333,135.8667,55.24,86,41,17.36,AU,1627235488
63,Hamilton,39.1834,-84.5333,90.75,69,40,1.01,US,1627235220
64,Nuquí,5.7125,-77.2708,75.83,90,100,3.69,CO,1627235488
65,Saint-Philippe,-21.3585,55.7679,69.39,77,37,11.39,RE,1627235488
66,Gobabis,-22.45,18.9667,53.47,45,2,11.39,NA,1627235489
67,Naze,28.3667,129.4833,77.97,88,100,18.72,JP,1627235489
68,Mossamedes,-15.1961,12.1522,68.05,67,0,3.8,AO,1627235236
69,Riyadh,24.6877,46.7219,104.14,11,8,9.91,SA,1627235478
70,Pontianak,-0.0333,109.3333,78.78,94,75,2.3,ID,1627235489
71,Port-Cartier,50.0334,-66.8654,67.93,74,96,9.19,CA,1627235489
72,Bredasdorp,-34.5322,20.0403,53.28,87,100,5.75,ZA,1627235310
73,Launceston,-41.45,147.1667,44.8,90,75,1.99,AU,1627235490
74,Altay,47.8667,88.1167,67.96,53,4,4.7,CN,1627235490
75,Kuzino,57.0224,59.4412,50.18,67,30,3.15,RU,1627235490
76,Talnakh,69.4865,88.3972,56.3,94,100,6.33,RU,1627235490
77,Lázaro Cárdenas,17.9583,-102.2,86.11,71,32,4.45,MX,1627235463
78,Port Keats,-14.25,129.55,68.81,78,54,5.03,AU,1627235491
79,Yellowknife,62.456,-114.3525,61.29,51,20,4.61,CA,1627235491
80,Satun,6.8333,100.0,80.31,93,81,2.62,TH,1627235491
81,Cape Town,-33.9258,18.4232,62.28,49,0,2.3,ZA,1627235324
82,Atuona,-9.8,-139.0333,77.38,72,52,23.67,PF,1627235492
83,Vestmannaeyjar,63.4427,-20.2734,54.59,82,75,27.63,IS,1627235492
84,Sola,-13.8833,167.55,79.54,82,44,10.96,VU,1627235492
85,New Norfolk,-42.7826,147.0587,42.3,69,74,3.0,AU,1627235368
86,Ponta do Sol,32.6667,-17.1,78.71,76,6,5.08,PT,1627235493
87,Tuktoyaktuk,69.4541,-133.0374,53.6,100,90,19.57,CA,1627235493
88,Kaitangata,-46.2817,169.8464,49.93,61,100,4.85,NZ,1627235493
89,Kherson,46.6558,32.6178,79.92,72,0,4.47,UA,1627235493
90,Lyubinskiy,55.1542,72.6925,65.88,86,43,16.2,RU,1627235494
91,Pangai,-19.8,-174.35,73.51,94,20,0.0,TO,1627235494
92,Muhafazat Lahij,13.1667,44.5833,79.25,73,95,1.52,YE,1627235494
93,Finspång,58.7058,15.7674,77.65,51,66,7.38,SE,1627235494
94,Fort Saint James,54.4333,-124.25,53.51,90,100,4.12,CA,1627235495
95,St Albans,51.75,-0.3333,68.86,92,90,9.22,GB,1627235495
96,San Patricio,28.017,-97.5169,94.01,44,4,10.49,US,1627235495
97,Wajima,37.4,136.9,78.1,83,4,3.42,JP,1627235495
98,Olafsvik,64.8945,-23.7142,50.07,85,69,27.78,IS,1627235496
99,Nikolskoye,59.7035,30.7861,69.78,64,51,2.42,RU,1627235496
100,Anadyr,64.75,177.4833,52.3,93,90,4.0,RU,1627235496
101,Puerto Ayora,-0.7393,-90.3518,78.76,84,38,5.99,EC,1627235496
102,Anjiang,27.3194,110.1031,74.03,94,0,0.51,CN,1627235497
103,Kayerkan,69.3497,87.7602,53.46,95,100,3.56,RU,1627235497
104,Uyar,55.81,94.3153,60.53,83,0,3.65,RU,1627235497
105,Maní,4.8172,-72.2886,83.12,69,84,6.82,CO,1627235497
106,Lower Hutt,-41.2167,174.9167,57.02,70,100,10.36,NZ,1627235445
107,Al Bardīyah,31.7561,25.0865,78.28,60,0,13.24,LY,1627235422
108,Cherskiy,68.75,161.3,41.97,72,27,7.54,RU,1627235246
109,Makakilo City,21.3469,-158.0858,79.12,77,20,6.91,US,1627235498
110,Norman Wells,65.282,-126.8329,62.64,48,20,8.05,CA,1627235498
111,Touros,-5.1989,-35.4608,85.1,60,14,18.21,BR,1627235498
112,Mergen,49.1833,125.2167,67.77,98,100,6.38,CN,1627235499
113,Flinders,-34.5833,150.8552,56.17,61,53,17.0,AU,1627235499
114,Bambous Virieux,-20.3428,57.7575,71.85,60,40,11.5,MU,1627235499
115,Geraldton,-28.7667,114.6,48.61,93,0,12.66,AU,1627235349
116,Camden,39.7835,-74.9663,89.64,68,44,3.0,US,1627235500
117,Birin,26.8865,88.0718,65.73,93,100,3.15,NP,1627235500
118,Kedrovyy,56.1667,91.8167,61.21,82,40,2.89,RU,1627235500
119,Asău,46.4333,26.4,72.52,66,69,1.45,RO,1627235366
120,Lüderitz,-26.6481,15.1594,66.45,25,74,4.34,NA,1627235500
121,Sioux Lookout,50.1001,-91.917,79.18,47,40,14.97,CA,1627235484
122,Saint George,37.1041,-113.5841,91.33,45,10,1.99,US,1627235220
123,Puerto Carreño,6.189,-67.4859,84.69,65,99,3.42,CO,1627235300
124,Saint-Augustin,51.226,-58.6502,77.5,45,72,13.0,CA,1627235434
125,Chokurdakh,70.6333,147.9167,35.15,80,2,10.04,RU,1627235501
126,Abnūb,27.2696,31.1511,91.62,20,0,7.7,EG,1627235501
127,Severo-Kuril'sk,50.6789,156.125,53.69,97,82,3.36,RU,1627235501
128,Siocon,7.7061,122.1353,79.5,88,25,4.99,PH,1627235502
129,Oranjestad,12.524,-70.027,89.55,62,20,18.41,AW,1627235502
130,Taoudenni,22.6783,-3.9836,113.99,6,16,10.8,ML,1627235502
131,Zavyalovo,54.5053,82.4484,71.26,87,42,3.09,RU,1627235502
132,George Town,5.4112,100.3354,83.89,83,20,2.3,MY,1627235503
133,Priiskovyy,51.9333,116.6333,57.65,93,99,4.03,RU,1627235503
134,Huarmey,-10.0681,-78.1522,68.25,73,17,8.41,PE,1627235503
135,Sørland,67.667,12.6934,53.67,87,40,10.36,NO,1627235503
136,Gambiran,-6.7988,111.4951,70.61,81,8,4.05,ID,1627235504
137,Vila Velha,-20.3297,-40.2925,77.97,55,40,9.22,BR,1627235504
138,Beringovskiy,63.05,179.3167,51.33,91,98,1.83,RU,1627235319
139,Poum,-20.2333,164.0167,72.1,79,5,14.52,NC,1627235504
140,Ust'-Omchug,61.15,149.6333,52.77,96,100,6.2,RU,1627235505
141,Kollam,8.8833,76.6,80.47,92,97,17.29,IN,1627235505
142,Aquiraz,-3.9014,-38.3911,87.22,55,2,12.59,BR,1627235505
143,Mount Isa,-20.7333,139.5,44.37,49,4,2.3,AU,1627235251
144,Saint Anthony,45.0205,-93.218,91.26,30,1,1.99,US,1627235505
145,Sidi Ali,36.0998,0.4206,79.68,43,25,9.84,DZ,1627235506
146,Lompoc,34.6391,-120.4579,76.69,82,90,0.0,US,1627235342
147,Champerico,14.3,-91.9167,91.94,72,85,6.53,GT,1627235506
148,Airai,-8.9266,125.4092,55.54,51,40,3.06,TL,1627235321
149,Barentu,15.1139,37.5928,73.35,78,100,5.37,ER,1627235506
150,Ostrovnoy,68.0531,39.5131,46.45,85,95,17.69,RU,1627235506
151,Cabo San Lucas,22.8909,-109.9124,95.5,65,4,7.27,MX,1627235448
152,Guánica,17.9716,-66.908,91.62,71,56,4.0,PR,1627235507
153,Bluff,-46.6,168.3333,47.8,82,100,5.91,NZ,1627235507
154,Torbay,47.6666,-52.7314,63.28,93,90,10.36,CA,1627235219
155,Upernavik,72.7868,-56.1549,41.0,82,47,11.56,GL,1627235343
156,Faya,18.3851,42.4509,66.31,71,93,4.16,SA,1627235507
157,Ananas,19.2466,-71.9557,82.47,46,99,1.25,HT,1627235508
158,Neumünster,54.0667,9.9833,77.27,97,51,6.71,DE,1627235508
159,Vaini,-21.2,-175.2,68.16,94,55,0.0,TO,1627235508
160,Bilopillya,51.1502,34.3129,67.93,59,46,7.99,UA,1627235508
161,Longyearbyen,78.2186,15.6401,44.44,87,75,10.36,SJ,1627235399
162,Fare,-16.7,-151.0167,77.5,66,0,13.6,PF,1627235509
163,Lavrentiya,65.5833,-171.0,44.06,99,100,4.99,RU,1627235407
164,Hong Kong,22.2855,114.1577,86.38,84,20,1.01,HK,1627235283
165,Pangnirtung,66.1451,-65.7125,55.4,82,90,4.61,CA,1627235509
166,Vanimo,-2.6741,141.3028,74.73,81,100,3.4,PG,1627235509
167,Mayskiy,47.6931,40.1025,85.44,41,18,7.43,RU,1627235510
168,Thunder Bay,48.4001,-89.3168,82.38,39,75,11.5,CA,1627235420
169,Bethel,41.3712,-73.414,79.2,85,90,1.01,US,1627235510
170,Kieta,-6.2167,155.6333,78.12,83,76,1.52,PG,1627235397
171,Izhma,65.0083,53.9113,49.05,95,99,6.4,RU,1627235510
172,Vao,-22.6667,167.4833,70.84,79,64,13.35,NC,1627235507
173,Yartsevo,55.0667,32.6964,66.45,68,87,4.36,RU,1627235511
174,Fallon,39.4735,-118.7774,91.45,14,75,8.05,US,1627235342
175,Gizo Government Station,-8.103,156.8419,79.86,80,70,5.68,SB,1627235481
176,Khromtau,50.2503,58.4347,68.65,48,3,7.67,KZ,1627235511
177,Agbor,6.2518,6.1934,74.48,86,74,4.74,NG,1627235511
178,Cayenne,4.9333,-52.3333,84.09,79,40,3.0,GF,1627235511
179,Nuuk,64.1835,-51.7216,52.41,62,40,4.61,GL,1627235320
180,Esperance,-33.8667,121.9,53.44,83,4,17.49,AU,1627235512
181,Victoria Falls,-17.9235,25.843,56.17,49,0,3.18,ZW,1627235512
182,Iguape,-24.7081,-47.5553,78.57,43,0,2.48,BR,1627235512
183,Mar del Plata,-38.0023,-57.5575,57.22,59,90,7.0,AR,1627235305
184,Garmsār,35.2182,52.3409,97.61,14,1,9.26,IR,1627235513
185,Okhotsk,59.3833,143.3,55.54,98,100,5.79,RU,1627235513
186,Nanchong,30.7951,106.0847,78.33,82,16,1.43,CN,1627235513
187,Lorengau,-2.0226,147.2712,78.53,84,20,9.28,PG,1627235513
188,Katsuura,35.1333,140.3,81.1,86,8,11.43,JP,1627235309
189,Ribeira Grande,38.5167,-28.7,73.8,83,40,8.05,PT,1627235342
190,Tutóia,-2.7619,-42.2744,91.38,57,39,10.42,BR,1627235514
191,Rawson,-43.3002,-65.1023,52.41,33,18,19.51,AR,1627235365
192,Departamento de Maldonado,-34.6667,-54.9167,65.59,78,65,13.18,UY,1627235514
193,Srednekolymsk,67.45,153.6833,39.24,76,100,15.68,RU,1627235514
194,Kaniama,-7.5667,24.1833,73.08,32,45,5.01,CD,1627235515
195,Bengkulu,-3.8004,102.2655,75.49,90,2,4.83,ID,1627235515
196,Rocha,-34.4833,-54.3333,72.52,71,71,12.88,UY,1627235261
197,Kolpashevo,58.3131,82.9089,65.55,76,18,5.95,RU,1627235515
198,Los Angeles,34.0522,-118.2437,91.89,69,1,3.44,US,1627235277
199,Tasiilaq,65.6145,-37.6368,46.56,87,66,5.1,GL,1627235322
200,Vostok,46.4856,135.8833,65.73,89,88,3.62,RU,1627235515
201,Portland,45.5234,-122.6762,80.71,60,1,1.99,US,1627235447
202,San Ramon,37.7799,-121.978,81.81,50,1,1.99,US,1627235313
203,Rosetta,31.4044,30.4164,82.22,71,0,13.82,EG,1627235516
204,Makat,47.6469,53.3463,85.66,24,1,14.79,KZ,1627235516
205,Xingyi,24.1877,102.817,59.32,95,100,1.95,CN,1627235516
206,Tautira,-17.7333,-149.15,75.22,67,2,10.07,PF,1627235517
207,Krasnyy Yar,46.5331,48.3456,80.53,33,1,4.72,RU,1627235517
208,Kununurra,-15.7667,128.7333,60.78,82,25,0.0,AU,1627235517
209,Dosso,13.049,3.1937,89.4,49,72,11.72,NE,1627235517
210,Santiago de Cao,-7.9589,-79.2392,69.93,73,75,10.36,PE,1627235518
211,La Ronge,55.1001,-105.2842,64.65,59,75,8.05,CA,1627235470
212,Aklavik,68.2191,-135.0107,55.4,76,75,17.27,CA,1627235479
213,Armidale,-30.5167,151.65,34.81,91,5,5.41,AU,1627235518
214,Fortuna,40.5982,-124.1573,58.98,96,90,0.0,US,1627235230
215,Porto Torres,40.835,8.3972,86.18,75,67,7.72,IT,1627235518
216,Kahului,20.8947,-156.47,79.84,88,40,18.41,US,1627235317
217,Grivenskaya,45.6473,38.176,78.66,43,33,9.93,RU,1627235519
218,San Miguel de Tucumán,-26.8241,-65.2226,69.8,37,5,6.91,AR,1627235421
219,Sri Aman,1.2376,111.4621,78.85,94,84,0.0,MY,1627235519
220,Ugoofaaru,5.6667,73.0,81.91,77,100,20.6,MV,1627235519
221,Bauchi,10.5,10.0,73.04,90,99,2.51,NG,1627235519
222,Megion,61.0296,76.1136,59.02,97,100,12.55,RU,1627235520
223,Diébougou,10.9667,-3.25,82.38,63,92,4.94,BF,1627235520
224,Princeton,25.5384,-80.4089,93.0,55,40,8.39,US,1627235520
225,Marathon,44.9,-89.7668,83.73,50,1,13.8,US,1627235521
226,Pangkalanbuun,-2.6833,111.6167,72.95,93,0,2.89,ID,1627235521
227,Paamiut,61.994,-49.6678,44.69,70,79,4.72,GL,1627235521
228,Tadine,-21.55,167.8833,69.33,81,16,11.88,NC,1627235521
229,Ayan,56.45,138.1667,58.42,96,97,3.02,RU,1627235522
230,Qaqortoq,60.7167,-46.0333,48.04,61,99,5.32,GL,1627235522
231,Santa Catarina de Tepehuanes,25.35,-105.7333,79.83,34,77,6.53,MX,1627235522
232,Lagoa,39.05,-27.9833,69.49,82,100,12.8,PT,1627235523
233,Amos,48.5669,-78.1162,73.18,60,9,7.81,CA,1627235523
234,Diapaga,12.0708,1.7889,84.9,57,83,7.09,BF,1627235523
235,Bonthe,7.5264,-12.505,78.6,77,90,8.79,SL,1627235523
236,Luwuk,-0.9516,122.7875,75.56,82,76,5.35,ID,1627235524
237,Aksu,41.1231,80.2644,88.27,23,0,0.6,CN,1627235524
238,Les Cayes,18.2,-73.75,84.85,69,92,9.84,HT,1627235524
239,Krasnoturansk,54.3186,91.5639,70.59,95,90,4.03,RU,1627235525
240,Sabang,5.8933,95.3214,83.01,78,98,10.36,ID,1627235525
241,Río Gallegos,-51.6226,-69.2181,39.25,70,40,19.57,AR,1627235525
242,Marzuq,14.4,46.4667,74.17,77,23,9.75,YE,1627235525
243,Qasigiannguit,68.8193,-51.1922,55.65,54,89,4.12,GL,1627235342
244,Broken Hill,-31.95,141.4333,49.71,66,45,12.66,AU,1627235526
245,Birao,10.2849,22.7882,73.56,83,90,3.78,CF,1627235526
246,Ancud,-41.8697,-73.8203,44.13,61,17,10.31,CL,1627235526
247,Rafai,4.95,23.9167,71.76,84,91,3.71,CF,1627235526
248,Borogontsy,62.6683,131.1683,55.15,70,1,4.68,RU,1627235527
249,Kasulu,-4.5767,30.1025,69.57,72,10,4.43,TZ,1627235527
250,Östersund,63.1792,14.6357,73.85,43,75,9.22,SE,1627235527
251,Codrington,-38.2667,141.9667,49.68,92,98,15.17,AU,1627235488
252,Berbera,10.4396,45.0143,89.22,37,90,25.21,SO,1627235527
253,San Vicente,-26.6167,-54.1333,82.33,29,89,7.43,AR,1627235528
254,Lucapa,-8.4192,20.7447,73.94,30,0,4.41,AO,1627235528
255,Homer,59.6425,-151.5483,58.77,88,1,3.44,US,1627235509
256,Teya,60.3778,92.6267,65.61,65,1,3.22,RU,1627235528
257,Cedar City,37.6775,-113.0619,80.19,46,1,0.0,US,1627235529
258,Caravelas,-17.7125,-39.2481,74.16,65,59,7.49,BR,1627235393
259,Araouane,18.9048,-3.5265,105.31,18,56,8.03,ML,1627235529
260,Trairi,-3.2778,-39.2689,85.12,53,41,14.67,BR,1627235234
261,Narsaq,60.9167,-46.05,52.32,48,100,4.34,GL,1627235529
262,Khorixas,-20.3667,14.9667,68.86,26,0,9.78,NA,1627235529
263,Poquoson,37.1224,-76.3458,89.06,65,75,1.99,US,1627235530
264,Arraial do Cabo,-22.9661,-42.0278,78.76,69,0,19.57,BR,1627235334
265,Sungai Penuh,-2.0833,101.3833,64.4,97,36,3.42,ID,1627235530
266,Madanapalle,13.55,78.5,76.91,71,74,13.76,IN,1627235530
267,Estelle,29.8458,-90.1067,95.04,60,1,8.05,US,1627235530
268,Praia da Vitória,38.7333,-27.0667,71.85,88,75,11.97,PT,1627235528
269,Cape Canaveral,28.4058,-80.6048,93.25,73,40,11.5,US,1627235498
270,Del Rio,29.3627,-100.8968,92.23,59,1,6.91,US,1627235452
271,Gondanglegi,-7.7479,112.0132,70.21,90,18,7.45,ID,1627235531
272,Kaeo,-35.1,173.7833,58.32,95,89,5.91,NZ,1627235531
273,Biak,-0.9131,122.8766,74.82,81,73,7.02,ID,1627235531
274,Amga,60.8953,131.9608,55.87,95,35,3.02,RU,1627235532
275,Novo Cruzeiro,-17.4681,-41.8753,73.96,33,18,7.11,BR,1627235532
276,Aykhal,66.0,111.5,68.79,59,72,9.75,RU,1627235532
277,Stornoway,58.2093,-6.3865,62.92,77,40,11.5,GB,1627235532
278,Cidreira,-30.1811,-50.2056,74.28,53,6,6.53,BR,1627235334
279,Arlit,18.7369,7.3853,105.82,11,2,8.21,NE,1627235533
280,Puerto Escondido,15.85,-97.0667,88.27,61,59,7.54,MX,1627235533
281,Castro,-24.7911,-50.0119,70.07,41,2,7.7,BR,1627235533
282,‘Ewa Beach,21.3156,-158.0072,80.55,77,20,10.0,US,1627235293
283,Punta Alta,-38.8759,-62.0736,54.18,45,67,6.87,AR,1627235378
284,Kichera,55.9375,110.0997,62.62,59,82,4.18,RU,1627235534
285,Tigil',57.8,158.6667,54.43,94,93,5.1,RU,1627235534
286,Suntar,62.1444,117.6319,60.75,68,3,3.42,RU,1627235534
287,Curup,-3.4667,102.5333,66.42,95,3,3.69,ID,1627235534
288,Gorontalo,0.5412,123.0595,75.54,94,87,4.07,ID,1627235535
289,Cocobeach,1.0002,9.5823,78.73,79,60,7.96,GA,1627235535
290,Pevek,69.7008,170.3133,34.86,90,100,9.48,RU,1627235535
291,Toora-Khem,52.4675,96.11,60.37,97,100,1.14,RU,1627235535
292,Missão Velha,-7.2497,-39.1431,91.33,24,0,9.24,BR,1627235536
293,Tottori-shi,35.5,134.2333,74.91,84,2,7.49,JP,1627235330
294,São Gabriel da Cachoeira,-0.1303,-67.0892,84.0,84,75,2.66,BR,1627235536
295,Janakpur Dham,26.7183,85.9065,84.47,77,99,6.91,NP,1627235536
296,Grand Junction,39.0639,-108.5507,88.3,35,1,3.0,US,1627235536
297,Sigli,5.3848,95.9609,80.53,81,99,4.21,ID,1627235537
298,Grindavik,63.8424,-22.4338,52.27,87,75,34.52,IS,1627235537
299,Dargaville,-35.9333,173.8833,54.18,95,94,4.41,NZ,1627235537
300,Ballina,-28.8667,153.5667,48.78,81,0,3.44,AU,1627235537
301,Acajutla,13.5928,-89.8275,89.8,58,93,9.1,SV,1627235538
302,Waddān,29.1614,16.139,90.14,23,0,10.49,LY,1627235538
303,Adrar,20.5022,-10.0711,110.3,7,28,10.25,MR,1627235538
304,Abu Dhabi,24.4667,54.3667,100.51,63,31,8.05,AE,1627235539
305,Malanje,-9.5402,16.341,73.49,25,3,3.91,AO,1627235539
306,Tuatapere,-46.1333,167.6833,47.82,90,100,4.7,NZ,1627235352
307,Sharlyk,52.9167,54.75,59.11,46,23,5.35,RU,1627235539
308,Zyryanka,65.75,150.85,48.6,70,100,15.46,RU,1627235539
309,Mae Hong Son,19.3003,97.9685,74.82,99,100,2.46,TH,1627235540
310,Teplá,49.98,12.8643,73.49,79,98,4.68,CZ,1627235540
311,Havelock,34.8791,-76.9013,87.75,70,40,4.0,US,1627235540
312,Ixtapa,20.7,-105.2,89.22,72,57,5.01,MX,1627235540
313,Havre-St-Pierre,50.2334,-63.5986,73.76,60,1,8.05,CA,1627235541
314,Laas,46.6166,10.7002,70.68,84,70,4.05,IT,1627235541
315,Nioro,13.35,-15.75,85.01,58,100,9.13,GM,1627235541
316,Avera,33.194,-82.5271,89.71,50,93,3.49,US,1627235541
317,Ashland,40.8167,-82.2665,85.89,64,43,5.41,US,1627235542
318,Tarata,-17.6167,-66.0167,73.67,17,1,2.57,BO,1627235542
319,São José da Coroa Grande,-8.8978,-35.1478,76.86,81,22,12.97,BR,1627235542
320,Masvingo,-20.0637,30.8277,47.12,68,64,5.82,ZW,1627235542
321,Quatre Cocos,-20.2078,57.7625,71.71,65,3,14.34,MU,1627235543
322,Iqaluit,63.7506,-68.5145,46.13,93,90,4.0,CA,1627235543
323,Kalmunai,7.4167,81.8167,81.82,74,100,8.25,LK,1627235543
324,Queanbeyan,-35.35,149.2333,44.58,91,90,18.41,AU,1627235543
325,Neiafu,-18.65,-173.9833,74.08,100,75,0.0,TO,1627235284
326,Copiapó,-27.3667,-70.3333,55.09,32,0,7.47,CL,1627235301
327,Catió,11.2833,-15.25,81.81,71,99,8.25,GW,1627235544
328,Broome,42.2506,-75.833,85.55,72,40,1.01,US,1627235544
329,Bone,51.9669,12.1396,80.85,58,100,4.52,DE,1627235544
330,Eureka,40.8021,-124.1637,59.94,87,78,5.01,US,1627235456
331,Griffith,41.5284,-87.4237,90.9,48,40,1.99,US,1627235545
332,Opuwo,-18.0607,13.84,66.76,25,0,7.74,NA,1627235537
333,Westport,41.1415,-73.3579,81.28,86,90,1.01,US,1627235444
334,Okato,-39.2,173.8833,53.42,93,100,24.47,NZ,1627235545
335,Nanortalik,60.1432,-45.2371,45.28,74,100,12.97,GL,1627235545
336,Cherëmukhovo,60.3484,59.9851,46.9,83,49,3.89,RU,1627235546
337,Santarém,-2.4431,-54.7083,89.73,58,20,11.5,BR,1627235546
338,Klamath Falls,42.2249,-121.7817,81.88,40,1,5.75,US,1627235298
339,Aksarka,66.5606,67.7975,46.47,77,19,12.53,RU,1627235462
340,Peleduy,59.6289,112.7406,60.24,66,29,3.65,RU,1627235546
341,Gemena,3.25,19.7667,72.41,86,94,2.46,CD,1627235546
342,Crixás,-14.5489,-49.9692,90.75,19,0,5.39,BR,1627235547
343,Constitución,-35.3333,-72.4167,53.44,88,50,10.25,CL,1627235547
344,Ipinda,-9.4833,33.9,61.3,77,38,3.89,TZ,1627235547
345,Tonantins,-2.8731,-67.8022,92.39,45,23,3.91,BR,1627235547
346,Polovinnoye,54.7914,65.9864,56.68,79,17,8.03,RU,1627235548
347,Morón,-34.6534,-58.6198,59.97,97,96,1.99,AR,1627235469
348,Santa Barbara,34.7333,-120.0343,89.13,62,1,5.75,US,1627235292
349,Verkhnevilyuysk,63.4453,120.3167,61.59,59,1,5.39,RU,1627235548
350,Salalah,17.0151,54.0924,78.44,86,100,11.81,OM,1627235548
351,Ekenäs,59.9736,23.4339,76.71,60,22,7.7,FI,1627235549
352,Ubari,26.5921,12.7805,91.06,16,0,11.97,LY,1627235549
353,Senneterre,48.3835,-77.2328,71.82,61,13,9.89,CA,1627235549
354,Middle Island,40.8843,-72.9373,79.86,89,90,1.99,US,1627235549
355,Qaryat Sulūq,31.6682,20.2521,86.02,31,0,18.03,LY,1627235550
356,Jalu,29.0331,21.5482,89.51,22,0,7.74,LY,1627235550
357,High Rock,26.6208,-78.2833,86.02,72,95,11.56,BS,1627235550
358,Križevci,46.0219,16.5425,83.8,46,84,6.49,HR,1627235550
359,Verāval,20.9,70.3667,79.72,85,100,15.14,IN,1627235551
360,Meulaboh,4.1363,96.1285,78.04,86,98,2.3,ID,1627235551
361,São Desidério,-12.3633,-44.9733,89.26,26,9,7.56,BR,1627235551
362,Inhambane,-23.865,35.3833,66.18,72,75,5.01,MZ,1627235418
363,Goundam,16.4145,-3.6708,97.05,34,69,7.61,ML,1627235551
364,Hofn,64.2539,-15.2082,52.14,88,97,15.17,IS,1627235552
365,Vila Franca do Campo,37.7167,-25.4333,72.01,73,46,8.32,PT,1627235552
366,Terrace,54.5163,-128.6035,58.91,94,90,6.91,CA,1627235552
367,Sol'-Iletsk,51.1631,54.9918,68.32,42,43,12.3,RU,1627235552
368,Carnarvon,-24.8667,113.6333,55.47,72,0,5.75,AU,1627235274
369,Termez,37.2242,67.2783,93.29,20,0,4.61,UZ,1627235553
370,Cappelle-la-Grande,50.9998,2.3585,71.11,74,93,3.0,FR,1627235553
371,Pangody,65.85,74.4859,52.34,69,100,11.74,RU,1627235553
372,Cap Malheureux,-19.9842,57.6142,72.09,59,0,8.99,MU,1627235554
373,Mulchén,-37.7167,-72.2333,49.86,91,100,6.15,CL,1627235554
374,Shitanjing,39.2342,106.3439,77.49,31,100,5.08,CN,1627235554
375,Ortigueira,-24.2083,-50.9494,75.65,31,2,4.99,BR,1627235554
376,Clyde River,70.4692,-68.5914,35.83,100,90,12.66,CA,1627235555
377,Bowen,-20.0167,148.2333,46.62,71,5,6.64,AU,1627235555
378,Arrondissement de Millau,44.0833,2.9167,76.39,62,99,8.1,FR,1627235555
379,Mopti,14.6667,-4.0,91.99,44,33,12.71,ML,1627235555
380,Agadez,19.75,10.25,97.9,16,51,8.16,NE,1627235556
381,Sanary-sur-Mer,43.1178,5.8001,87.93,53,92,7.0,FR,1627235556
382,Kota Kinabalu,5.9749,116.0724,80.58,89,20,2.3,MY,1627235556
383,Verkhoyansk,67.5447,133.385,55.29,70,41,2.98,RU,1627235557
384,San Policarpo,12.1791,125.5072,81.57,77,60,10.27,PH,1627235353
385,Matara,5.9485,80.5353,77.68,88,68,10.4,LK,1627235557
386,Pochutla,15.7432,-96.4661,91.81,51,99,5.59,MX,1627235557
387,Mahébourg,-20.4081,57.7,71.89,60,40,11.5,MU,1627235557
388,Wynyard,-41.0,145.7167,43.95,75,48,11.56,AU,1627235558
389,Port Augusta,-32.5,137.7667,49.71,84,2,9.42,AU,1627235558
390,Lębork,54.5392,17.7501,78.35,69,100,10.16,PL,1627235558
391,West Wendover,40.7391,-114.0733,83.41,16,1,5.75,US,1627235406
392,Port Hueneme,34.1478,-119.1951,91.24,82,90,3.44,US,1627235558
393,Kruisfontein,-34.0033,24.7314,53.71,45,59,3.13,ZA,1627235559
394,Kavaratti,10.5669,72.642,81.55,77,100,22.39,IN,1627235559
395,Santiago del Estero,-27.7951,-64.2615,69.8,24,0,10.76,AR,1627235497
396,Shima,24.4478,117.8111,87.82,82,88,4.59,CN,1627235559
397,Wattegama,6.7989,81.4808,77.54,79,87,9.93,LK,1627235560
398,Lebu,-37.6167,-73.65,51.17,89,89,4.5,CL,1627235318
399,Karatau,43.1667,70.4667,84.45,19,0,2.35,KZ,1627235560
400,Kawalu,-7.3817,108.2082,66.78,97,7,0.94,ID,1627235537
401,Guerrero Negro,27.9769,-114.0611,76.05,61,60,9.53,MX,1627235395
402,Davlekanovo,54.2215,55.0343,59.02,42,23,4.92,RU,1627235560
403,Attingal,8.6833,76.8333,80.28,92,88,14.16,IN,1627235561
404,Iquitos,-3.7481,-73.2472,86.04,70,75,2.3,PE,1627235561
405,Jinji,23.2281,110.8261,79.66,82,45,1.92,CN,1627235561
406,Tobermory,45.2501,-81.6665,79.3,82,11,15.73,CA,1627235561
407,Jacareacanga,-6.2222,-57.7528,100.02,23,9,3.18,BR,1627235562
408,Pimentel,-6.8367,-79.9342,71.89,81,90,5.01,PE,1627235562
409,Davila,18.4726,120.5763,81.86,88,100,24.85,PH,1627235562
410,Manzhouli,49.6,117.4333,56.03,89,41,4.72,CN,1627235562
411,South Sioux City,42.4739,-96.4136,89.29,45,79,5.99,US,1627235563
412,Kavieng,-2.5744,150.7967,81.05,76,53,1.05,PG,1627235555
413,Fukuechō,32.6881,128.8419,79.54,82,100,20.62,JP,1627235563
414,Dikson,73.5069,80.5464,38.34,89,54,13.18,RU,1627235315
415,Amilly,47.9728,2.7719,73.38,63,37,11.27,FR,1627235563
416,Gigmoto,13.7796,124.39,80.29,86,94,9.46,PH,1627235564
417,Odoyev,53.9393,36.6864,62.58,67,81,1.25,RU,1627235564
418,Cueto,20.6439,-75.9356,90.93,53,71,5.23,CU,1627235564
419,Aiquile,-18.2041,-65.1807,79.45,19,1,6.71,BO,1627235564
420,Cairns,-16.9167,145.7667,67.95,73,90,9.22,AU,1627235565
421,Coquimbo,-29.9533,-71.3436,60.53,63,0,13.8,CL,1627235375
422,Itaueira,-7.6033,-43.0256,92.08,27,4,11.59,BR,1627235565
423,Champasak,14.75,106.0,70.95,100,100,0.83,LA,1627235565
424,Gornyak,50.9942,81.4661,71.42,49,27,4.9,RU,1627235565
425,The Pas,53.8251,-101.2541,68.02,64,90,10.27,CA,1627235566
426,Fort Nelson,58.8053,-122.7002,67.59,45,40,11.5,CA,1627235566
427,Peniche,39.3558,-9.3811,73.72,87,27,11.99,PT,1627235566
428,Arman',59.7,150.1667,53.24,99,100,5.19,RU,1627235566
429,Mordovo,52.0834,40.77,64.56,56,16,4.92,RU,1627235567
430,Banda Aceh,5.5577,95.3222,80.19,83,92,6.04,ID,1627235567
431,Conde,-7.2597,-34.9075,76.46,88,75,9.22,BR,1627235567
432,Keti Bandar,24.1447,67.4497,82.96,82,93,18.72,PK,1627235567
433,Edson,53.5835,-116.4356,68.14,45,1,2.3,CA,1627235568
434,Roald,62.5833,6.1333,76.12,82,24,11.5,NO,1627235568
435,Vizinga,61.0749,50.1031,55.38,66,98,5.21,RU,1627235568
436,Faanui,-16.4833,-151.75,77.77,66,2,13.11,PF,1627235569
437,Bubaque,11.2833,-15.8333,79.34,79,98,6.49,GW,1627235532
438,Morros,-9.4467,-46.3003,91.38,23,1,7.9,BR,1627235569
439,Nizwá,22.9333,57.5333,88.45,52,73,7.09,OM,1627235569
440,Ust-Nera,64.5667,143.2,50.41,97,100,7.43,RU,1627235473
441,Beyneu,45.3167,55.2,88.48,20,14,10.16,KZ,1627235570
442,Skovorodino,53.9833,123.9167,57.2,98,60,3.6,RU,1627235570
443,Anloga,5.7947,0.8973,79.02,76,16,15.46,GH,1627235570
444,Mayo,38.8876,-76.5119,92.21,70,1,3.0,US,1627235431
445,Bara,10.3744,10.7288,77.25,80,99,5.68,NG,1627235570
446,Zhigalovo,54.8097,105.1578,61.43,67,100,2.53,RU,1627235571
447,Erie,42.7667,-78.6664,83.41,75,4,4.0,US,1627235571
448,San Angelo,31.4638,-100.437,100.98,39,7,3.0,US,1627235571
449,Omsukchan,62.5333,155.8,49.14,98,100,7.09,RU,1627235571
450,Anju,39.6178,125.6647,74.55,89,50,2.46,KP,1627235572
451,Worcester,42.3334,-71.8328,70.11,90,90,3.0,US,1627235572
452,Kangalassy,62.3464,129.9628,62.53,76,7,5.97,RU,1627235572
453,Salinas,36.6777,-121.6555,77.04,72,40,3.44,US,1627235532
454,Fairbanks,64.8378,-147.7164,60.1,73,90,1.01,US,1627235569
455,Xam Nua,20.4197,104.0439,68.5,100,100,0.94,LA,1627235573
456,San Felipe,10.3399,-68.7425,89.98,49,100,6.33,VE,1627235573
457,Takoradze,4.8845,-1.7554,77.0,75,53,12.03,GH,1627235573
458,Nagornskiy,58.7731,57.5451,49.78,71,92,3.24,RU,1627235573
459,Dunda,-8.1167,34.25,61.21,44,0,7.92,TZ,1627235574
460,Umeå,63.8284,20.2597,73.33,60,0,5.75,SE,1627235574
461,Bayan,46.0833,127.4,72.72,85,100,4.0,CN,1627235574
462,Yerbogachën,61.2767,108.0108,62.56,66,19,1.19,RU,1627235573
463,Vanavara,60.34,102.2797,63.46,71,37,3.78,RU,1627235550
464,Kamaishi,39.2667,141.8833,70.75,90,62,4.99,JP,1627235575
465,Pitiquito,30.7,-112.0833,85.77,51,99,5.14,MX,1627235575
466,Katima Mulilo,-17.5,24.2667,60.1,38,1,8.77,NA,1627235575
467,Osakarovka,50.565,72.5692,64.85,76,57,7.67,KZ,1627235575
468,Tambun,-6.2641,107.0712,81.46,75,1,3.42,ID,1627235576
469,Togur,58.3631,82.8265,65.71,76,18,6.13,RU,1627235576
470,Sakakah,29.9697,40.2064,105.37,16,1,10.54,SA,1627235576
471,Rome,43.2128,-75.4557,84.06,61,75,1.01,US,1627235533
472,Krasnogorskoye,52.2953,86.1979,64.67,89,43,4.79,RU,1627235576
473,Plettenberg Bay,-34.0527,23.3716,59.14,50,77,3.65,ZA,1627235577
474,Los Llanos de Aridane,28.6585,-17.9182,74.12,81,20,16.11,ES,1627235328
475,Camacha,33.0833,-16.3333,74.16,83,40,12.66,PT,1627235577
476,Kuito,-12.3833,16.9333,59.83,38,0,1.72,AO,1627235577
477,Mahon,39.8885,4.2658,79.36,69,0,10.36,ES,1627235577
478,Starotitarovskaya,45.2136,37.1439,79.27,58,48,14.27,RU,1627235578
479,Harper,4.375,-7.7169,77.88,71,87,7.65,LR,1627235578
480,Tara,56.8944,74.371,61.99,99,99,5.7,RU,1627235578
481,Moerai,-22.4333,-151.3333,72.46,78,39,7.23,PF,1627235579
482,Oistins,13.0667,-59.5333,87.89,74,75,18.41,BB,1627235579
483,Oranjemund,-28.55,16.4333,64.9,30,100,3.22,NA,1627235579
484,Santa Maria,-29.6842,-53.8069,83.5,34,40,20.71,BR,1627235341
485,Merauke,-8.4667,140.3333,76.44,82,99,10.47,ID,1627235579
486,Lichinga,-13.3128,35.2406,53.69,76,20,10.36,MZ,1627235580
487,Leyland,53.6979,-2.6876,75.52,65,68,3.0,GB,1627235580
488,Port Macquarie,-31.4333,152.9167,53.56,59,0,8.34,AU,1627235580
489,Areosa,41.7178,-8.8571,77.68,78,64,10.22,PT,1627235522
490,Mareeba,-17.0,145.4333,63.32,78,50,2.01,AU,1627235581
491,Pando,-34.7167,-55.95,68.09,77,75,16.11,UY,1627235581
492,Beaufort,5.3473,115.7455,78.96,95,81,2.68,MY,1627235581
493,Cabinda,-5.55,12.2,73.13,84,79,6.31,AO,1627235581
494,Beloha,-25.1667,45.05,61.16,61,12,9.6,MG,1627235560
495,Ormara,25.2088,64.6357,82.24,85,92,15.57,PK,1627235495
496,La Mira,18.035,-102.3266,86.45,70,26,5.37,MX,1627235582
497,Paso de los Toros,-32.8167,-56.5167,72.16,70,9,12.73,UY,1627235582
498,Sulangan,11.1373,123.7228,83.88,73,22,15.64,PH,1627235582
499,Kushiro,42.975,144.3747,61.03,96,28,0.29,JP,1627235582
500,Murgab,37.4966,61.9714,93.07,26,0,6.91,TM,1627235583
501,Beisfjord,68.3751,17.5988,58.96,97,98,2.28,NO,1627235583
502,Zhezkazgan,47.8043,67.7144,82.78,39,1,17.94,KZ,1627235583
503,Pasni,25.2631,63.471,81.82,84,45,12.33,PK,1627235584
504,Vaitape,-16.5167,-151.75,77.77,66,2,13.15,PF,1627235584
505,Pāppinisshēri,11.95,75.35,76.39,93,72,6.46,IN,1627235584
506,Tulsīpur,28.131,82.2973,78.44,89,98,2.95,NP,1627235584
507,Orán,-23.1322,-64.326,86.43,28,90,4.29,AR,1627235585
508,Mujiayingzi,42.1167,118.7833,71.47,85,98,6.51,CN,1627235585
509,Saint-Joseph,-21.3667,55.6167,68.38,75,20,11.83,RE,1627235585
510,Saurimo,-9.6608,20.3916,69.76,34,2,5.23,AO,1627235585
511,Castrovillari,39.8203,16.2123,85.12,32,30,4.74,IT,1627235586
512,Bonfim,3.0833,-59.95,88.39,55,78,7.09,BR,1627235586
513,Mbaïki,3.8678,17.9892,73.96,77,84,0.85,CF,1627235586
514,Dorfen,48.2667,12.15,72.99,85,100,6.4,DE,1627235586
515,Mackay,-21.15,149.2,54.05,87,3,5.75,AU,1627235587
516,Klaksvík,62.2266,-6.589,52.72,96,100,12.55,FO,1627235587
517,Bandarbeyla,9.4942,50.8122,79.86,63,71,26.44,SO,1627235587
518,Ozinki,51.1786,49.6769,66.67,43,20,8.21,RU,1627235588
519,Kuching,1.55,110.3333,79.02,89,20,4.61,MY,1627235420
520,Wanaka,-44.7,169.15,44.11,99,100,1.9,NZ,1627235588
521,Lagunas,-5.2269,-75.6753,92.55,42,92,1.7,PE,1627235588
522,Olenino,56.2092,33.4889,64.47,61,93,4.99,RU,1627235588
523,Piteå,65.3172,21.4794,80.1,64,54,2.82,SE,1627235589
524,Marsh Harbour,26.5412,-77.0636,83.79,71,79,10.78,BS,1627235589
525,Tarko-Sale,64.9225,77.785,59.94,85,100,4.47,RU,1627235589
526,Kloulklubed,7.0419,134.2556,83.37,74,100,14.18,PW,1627235589
527,Kovdor,67.5662,30.4758,52.61,91,100,5.17,RU,1627235590
528,Chipinge,-20.1883,32.6236,51.57,54,65,2.06,ZW,1627235590
529,Santa Isabel Rio Negro,-0.4139,-65.0192,88.65,59,67,1.45,BR,1627235590
530,Pisco,-13.7,-76.2167,67.01,72,75,6.91,PE,1627235590
531,Lakselv,70.0513,24.9718,51.62,93,75,8.05,NO,1627235591
532,Guadalupe,25.6833,-100.25,92.39,56,1,3.0,MX,1627235461
533,Sarangani,5.4033,125.4636,83.5,77,51,11.18,PH,1627235591
534,Tay Ninh,11.3,106.1,76.1,88,60,5.37,VN,1627235591
535,Ialibu,-6.2821,143.9935,55.06,98,76,2.59,PG,1627235591
536,Macouria,4.9167,-52.3667,83.98,79,40,3.0,GF,1627235592
537,Buckeye,33.3703,-112.5838,83.14,93,100,10.36,US,1627235296
538,Quelimane,-17.8786,36.8883,67.95,72,40,8.01,MZ,1627235592
539,Bilma,18.6853,12.9164,99.84,27,64,3.51,NE,1627235592
540,Abu Samrah,35.3029,37.1841,89.04,30,0,11.34,SY,1627235593
541,Isla Vista,34.4133,-119.861,91.11,56,99,5.82,US,1627235593
542,Husavik,66.0449,-17.3389,55.31,67,100,4.14,IS,1627235593
543,Quang Ngai,15.1167,108.8,81.99,67,99,4.41,VN,1627235593
544,Tucupita,9.0622,-62.051,83.35,84,84,5.26,VE,1627235594
545,Alappuzha,9.49,76.3264,77.61,90,98,15.95,IN,1627235594
546,General Roca,-39.0333,-67.5833,52.2,43,100,11.23,AR,1627235594
547,Roswell,34.0232,-84.3616,92.55,63,75,1.01,US,1627235594
548,Moranbah,-22.0016,148.0466,52.74,39,2,7.38,AU,1627235595
549,Sambava,-14.2667,50.1667,68.13,81,94,12.19,MG,1627235595
550,Salinópolis,-0.6136,-47.3561,83.17,68,42,10.25,BR,1627235414
551,Turukhansk,65.8167,87.9833,64.4,83,33,3.02,RU,1627235595
552,Mizhou,35.9947,119.3975,74.19,97,98,3.87,CN,1627235595
553,Kabalo,-6.05,26.9167,80.47,30,13,6.85,CD,1627235596
554,Tual,-5.6667,132.75,79.86,79,98,19.13,ID,1627235525
555,Henties Bay,-22.116,14.2845,70.36,34,1,9.31,NA,1627235387
556,Malindi,-3.2175,40.1191,74.98,73,4,22.19,KE,1627235596
557,Vilhena,-12.7406,-60.1458,86.22,39,0,12.66,BR,1627235596
558,Kindu,-2.95,25.95,79.34,37,5,3.56,CD,1627235596
559,Leningradskiy,69.3833,178.4167,37.62,90,100,4.63,RU,1627235521
560,San Juan,-31.5375,-68.5364,58.51,31,0,3.91,AR,1627235597
561,Hammerfest,70.6634,23.6821,49.73,87,75,4.61,NO,1627235597
562,La Palma,33.8464,-118.0467,87.96,69,75,1.99,US,1627235425
563,Balyqshy,47.0667,51.8667,80.6,28,0,11.18,KZ,1627235597
564,Mil'kovo,54.7167,158.6167,56.82,89,70,3.96,RU,1627235441
565,Port Hardy,50.6996,-127.4199,59.18,88,75,2.3,CA,1627235598
566,Narrabri,-30.3167,149.7833,32.09,86,0,2.3,AU,1627235598
567,North Bend,43.4065,-124.2243,68.16,83,40,8.05,US,1627235598
568,Dingle,10.9995,122.6711,76.84,91,73,8.41,PH,1627235493
569,Kumul,42.8,93.45,88.23,19,0,11.65,CN,1627235457
